{"type":"FeatureCollection","features":[{"type":"Feature","geometry":{"type":"Point","coordinates":[6.096146,51.855279]},"properties":{"map":"c,d","theme":"inhabitation_and_recreation","title":"Church"}},{"type":"Feature","geometry":{"type":"Point","coordinates":[6.104203,51.852868]},"properties":{"map":"c,d","theme":"inhabitation_and_recreation","title":"School"}},{"type":"Feature","geometry":{"type":"Point","coordinates":[6.103207,51.850174]},"properties":{"map":"c,d","theme":"inhabitation_and_recreation","title":"Customs office"}},{"type":"Feature","geometry":{"type":"Point","coordinates":[6.097833,51.854007]},"properties":{"map":"d","theme":"inhabitation_and_recreation","title":"Shipyard"}},{"type":"Feature","geometry":{"type":"Point","coordinates":[6.112376,51.850069]},"properties":{"map":"d","theme":"inhabitation_and_recreation","title":"Oil Tank"}},{"type":"Feature","geometry":{"type":"Point","coordinates":[6.100444,51.850771]},"properties":{"map":"d","theme":"inhabitation_and_recreation","title":"Loading Areas"}},{"type":"Feature","geometry":{"type":"Point","coordinates":[6.108193,51.850129]},"properties":{"map":"d","theme":"inhabitation_and_recreation","title":"Loading Areas"}},{"type":"Feature","geometry":{"type":"Point","coordinates":[6.108193,51.850129]},"properties":{"map":"d","theme":"inhabitation_and_recreation","title":"Ground Storage"}},{"type":"Feature","geometry":{"type":"Point","coordinates":[6.104363,51.84997]},"properties":{"map":"c,d","theme":"inhabitation_and_recreation","title":"Steam Pumps"}},{"type":"Feature","geometry":{"type":"Point","coordinates":[6.109564,51.849861]},"properties":{"map":"d","theme":"inhabitation_and_recreation","title":"Anchor board"}},{"type":"Feature","geometry":{"type":"Point","coordinates":[6.112103,51.851828]},"properties":{"map":"d","theme":"inhabitation_and_recreation","title":"Ground Storage"}},{"type":"Feature","geometry":{"type":"Point","coordinates":[6.095532,51.853199]},"properties":{"map":"d","theme":"inhabitation_and_recreation","title":"Anchor Board"}},{"type":"Feature","geometry":{"type":"Point","coordinates":[6.112076,51.859499]},"properties":{"map":"a,b,c,d","theme":"inhabitation_and_recreation","title":"Corn Mill"}},{"type":"Feature","geometry":{"type":"Point","coordinates":[6.104761,51.853493]},"properties":{"map":"c,d","theme":"inhabitation_and_recreation","title":"Telegraph Office"}},{"type":"Feature","geometry":{"type":"Point","coordinates":[6.121351,51.860005]},"properties":{"map":"a,b,c,d","theme":"inhabitation_and_recreation","title":"Church"}},{"type":"Feature","geometry":{"type":"Point","coordinates":[6.120434,51.860834]},"properties":{"map":"a,b,c,d","theme":"inhabitation_and_recreation","title":"Church"}},{"type":"Feature","geometry":{"type":"Point","coordinates":[6.119736,51.860139]},"properties":{"map":"c,d","theme":"inhabitation_and_recreation","title":"Town Hall"}},{"type":"Feature","geometry":{"type":"Point","coordinates":[6.120823,51.861867]},"properties":{"map":"c,d","theme":"inhabitation_and_recreation","title":"School"}}]}